{ "loc" : { "type" : "Point", "coordinates" : [  21.01927,  52.24746 ] }, "name" : "Stacje paliw Orlen", "city" : "Warszawa" }
{ "loc" : { "type" : "Point", "coordinates" : [  21.038173,  52.262398 ] }, "name" : "Stacje paliw Orlen", "city" : "Warszawa" }
{ "loc" : { "type" : "Point", "coordinates" : [  21.01322,  52.27747 ] }, "name" : "Stacje paliw Orlen", "city" : "Warszawa" }
{ "loc" : { "type" : "Point", "coordinates" : [  21.05509,  52.26194 ] }, "name" : "Stacje paliw Orlen", "city" : "Warszawa" }
{ "loc" : { "type" : "Point", "coordinates" : [  21.020263,  52.235722 ] }, "name" : "Stacje paliw Orlen", "city" : "Warszawa" }
{ "loc" : { "type" : "Point", "coordinates" : [  21.023001,  52.283626 ] }, "name" : "Stacje paliw Orlen", "city" : "Warszawa" }
{ "loc" : { "type" : "Point", "coordinates" : [  20.98001,  52.25149 ] }, "name" : "Stacje paliw Orlen", "city" : "Warszawa" }
{ "loc" : { "type" : "Point", "coordinates" : [  21.03625,  52.23461 ] }, "name" : "Stacje paliw Orlen", "city" : "Warszawa" }
{ "loc" : { "type" : "Point", "coordinates" : [  21.066118,  52.250524 ] }, "name" : "Stacje paliw Orlen", "city" : "Warszawa" }
{ "loc" : { "type" : "Point", "coordinates" : [  20.98279,  52.23852 ] }, "name" : "Stacje paliw Orlen", "city" : "Warszawa" }
{ "loc" : { "type" : "Point", "coordinates" : [  20.9851,  52.23399 ] }, "name" : "Stacje paliw Orlen", "city" : "Warszawa" }
{ "loc" : { "type" : "Point", "coordinates" : [  20.96717,  52.24431 ] }, "name" : "Stacje paliw Orlen", "city" : "Warszawa" }
{ "loc" : { "type" : "Point", "coordinates" : [  20.98931,  52.22723 ] }, "name" : "Stacje paliw Orlen", "city" : "Warszawa" }
{ "loc" : { "type" : "Point", "coordinates" : [  20.95964,  52.25926 ] }, "name" : "Stacje paliw Orlen", "city" : "Warszawa" }
{ "loc" : { "type" : "Point", "coordinates" : [  20.98824,  52.22185 ] }, "name" : "Stacje paliw Orlen", "city" : "Warszawa" }
{ "loc" : { "type" : "Point", "coordinates" : [  21.0596,  52.22387 ] }, "name" : "Stacje paliw Orlen", "city" : "Warszawa" }
{ "loc" : { "type" : "Point", "coordinates" : [  20.99887,  52.21648 ] }, "name" : "Stacje paliw Orlen", "city" : "Warszawa" }
{ "loc" : { "type" : "Point", "coordinates" : [  21.006214,  52.215256 ] }, "name" : "Stacje paliw Orlen", "city" : "Warszawa" }
{ "loc" : { "type" : "Point", "coordinates" : [  21.020242,  52.214279 ] }, "name" : "Stacje paliw Orlen", "city" : "Warszawa" }
{ "loc" : { "type" : "Point", "coordinates" : [  21.081461,  52.286287 ] }, "name" : "Stacje paliw Orlen", "city" : "Warszawa" }
{ "loc" : { "type" : "Point", "coordinates" : [  21.0874,  52.23655 ] }, "name" : "Stacje paliw Orlen", "city" : "Warszawa" }
{ "loc" : { "type" : "Point", "coordinates" : [  21.04642,  52.21297 ] }, "name" : "Stacje paliw Orlen", "city" : "Warszawa" }
{ "loc" : { "type" : "Point", "coordinates" : [  21.09613,  52.24419 ] }, "name" : "Stacje paliw Orlen", "city" : "Warszawa" }
{ "loc" : { "type" : "Point", "coordinates" : [  21.07918,  52.29273 ] }, "name" : "Stacje paliw Orlen", "city" : "Warszawa" }
{ "loc" : { "type" : "Point", "coordinates" : [  20.9584,  52.22522 ] }, "name" : "Stacje paliw Orlen", "city" : "Warszawa" }
{ "loc" : { "type" : "Point", "coordinates" : [  20.957438,  52.224241 ] }, "name" : "Stacje paliw Orlen", "city" : "Warszawa" }
{ "loc" : { "type" : "Point", "coordinates" : [  21.09512,  52.23457 ] }, "name" : "Stacje paliw Orlen", "city" : "Warszawa" }
{ "loc" : { "type" : "Point", "coordinates" : [  20.94883,  52.29073 ] }, "name" : "Stacje paliw Orlen", "city" : "Warszawa" }
{ "loc" : { "type" : "Point", "coordinates" : [  20.93275,  52.27067 ] }, "name" : "Stacje paliw Orlen", "city" : "Warszawa" }
{ "loc" : { "type" : "Point", "coordinates" : [  21.119233,  52.268527 ] }, "name" : "Stacje paliw Orlen", "city" : "Warszawa" }
{ "loc" : { "type" : "Point", "coordinates" : [  20.932508,  52.305136 ] }, "name" : "Stacje paliw Orlen", "city" : "Warszawa" }
{ "loc" : { "type" : "Point", "coordinates" : [  20.92081,  52.22091 ] }, "name" : "Stacje paliw Orlen", "city" : "Warszawa" }
{ "loc" : { "type" : "Point", "coordinates" : [  21.00247,  52.18726 ] }, "name" : "Stacje paliw Orlen", "city" : "Warszawa" }
{ "loc" : { "type" : "Point", "coordinates" : [  21.05015,  52.18801 ] }, "name" : "Stacje paliw Orlen", "city" : "Warszawa" }
{ "loc" : { "type" : "Point", "coordinates" : [  20.959456,  52.191261 ] }, "name" : "Stacje paliw Orlen", "city" : "Warszawa" }
{ "loc" : { "type" : "Point", "coordinates" : [  20.89721,  52.239 ] }, "name" : "Stacje paliw Orlen", "city" : "Warszawa" }
{ "loc" : { "type" : "Point", "coordinates" : [  21.13771,  52.22927 ] }, "name" : "Stacje paliw Orlen", "city" : "Warszawa" }
{ "loc" : { "type" : "Point", "coordinates" : [  20.97101,  52.18624 ] }, "name" : "Stacje paliw Orlen", "city" : "Warszawa" }
{ "loc" : { "type" : "Point", "coordinates" : [  20.949312,  52.192603 ] }, "name" : "Stacje paliw Orlen", "city" : "Warszawa" }
{ "loc" : { "type" : "Point", "coordinates" : [  20.99791,  52.18062 ] }, "name" : "Stacje paliw Orlen", "city" : "Warszawa" }
{ "loc" : { "type" : "Point", "coordinates" : [  21.116959,  52.316501 ] }, "name" : "Stacje paliw Orlen", "city" : "Marki" }
{ "loc" : { "type" : "Point", "coordinates" : [  21.0455,  52.17677 ] }, "name" : "Stacje paliw Orlen", "city" : "Warszawa" }
{ "loc" : { "type" : "Point", "coordinates" : [  21.15727,  52.25763 ] }, "name" : "Stacje paliw Orlen", "city" : "Warszawa-Rembert√≥w" }
{ "loc" : { "type" : "Point", "coordinates" : [  21.07084,  52.18079 ] }, "name" : "Stacje paliw Orlen", "city" : "Warszawa" }
{ "loc" : { "type" : "Point", "coordinates" : [  21.14872,  52.225856 ] }, "name" : "Stacje paliw Orlen", "city" : "Warszawa" }
