{ "loc" : { "type" : "Point", "coordinates" : [  16.92181,  52.40047 ] }, "name" : "Stacje paliw Orlen", "city" : "Poznań" }
{ "loc" : { "type" : "Point", "coordinates" : [  16.88284,  52.38275 ] }, "name" : "Stacje paliw Orlen", "city" : "Poznań" }
{ "loc" : { "type" : "Point", "coordinates" : [  16.86608,  52.39178 ] }, "name" : "Stacje paliw Orlen", "city" : "Poznań" }
{ "loc" : { "type" : "Point", "coordinates" : [  16.91804,  52.42666 ] }, "name" : "Stacje paliw Orlen", "city" : "Poznań" }
{ "loc" : { "type" : "Point", "coordinates" : [  16.9432,  52.3835 ] }, "name" : "Stacje paliw Orlen", "city" : "Poznań" }
{ "loc" : { "type" : "Point", "coordinates" : [  16.935266,  52.426879 ] }, "name" : "Stacje paliw Orlen", "city" : "Poznań" }
{ "loc" : { "type" : "Point", "coordinates" : [  16.96708,  52.38777 ] }, "name" : "Stacje paliw Orlen", "city" : "Poznań" }
{ "loc" : { "type" : "Point", "coordinates" : [  16.84835,  52.42964 ] }, "name" : "Stacje paliw Orlen", "city" : "Poznań" }
{ "loc" : { "type" : "Point", "coordinates" : [  16.96678,  52.42706 ] }, "name" : "Stacje paliw Orlen", "city" : "Poznań" }
{ "loc" : { "type" : "Point", "coordinates" : [  16.903972,  52.457848 ] }, "name" : "Stacje paliw Orlen", "city" : "Poznań" }
{ "loc" : { "type" : "Point", "coordinates" : [  16.874919,  52.339173 ] }, "name" : "Stacje paliw Orlen", "city" : "Luboń" }
{ "loc" : { "type" : "Point", "coordinates" : [  16.80917,  52.43116 ] }, "name" : "Stacje paliw Orlen", "city" : "Poznań" }
{ "loc" : { "type" : "Point", "coordinates" : [  17.008269,  52.410019 ] }, "name" : "Stacje paliw Orlen", "city" : "Poznań" }
{ "loc" : { "type" : "Point", "coordinates" : [  17.009814,  52.410988 ] }, "name" : "Stacje paliw Orlen", "city" : "Poznań" }
{ "loc" : { "type" : "Point", "coordinates" : [  16.994545,  52.361025 ] }, "name" : "Stacje paliw Orlen", "city" : "Poznań" }
{ "loc" : { "type" : "Point", "coordinates" : [  16.78904,  52.41952 ] }, "name" : "Stacje paliw Orlen", "city" : "Przezmierowo" }
{ "loc" : { "type" : "Point", "coordinates" : [  16.88363,  52.46911 ] }, "name" : "Stacje paliw Orlen", "city" : "Suchy Las" }
