{ "loc" : { "type" : "Point", "coordinates" : [  19.46449,  51.772952 ] }, "name" : "Szkoly wyzsze", "city" : "Lodz" }
{ "loc" : { "type" : "Point", "coordinates" : [  19.48328,  51.77788 ] }, "name" : "Szkoly wyzsze", "city" : "Lodz" }
{ "loc" : { "type" : "Point", "coordinates" : [  19.48564,  51.7759 ] }, "name" : "Szkoly wyzsze", "city" : "Lodz" }
{ "loc" : { "type" : "Point", "coordinates" : [  19.45419,  51.7698 ] }, "name" : "Szkoly wyzsze", "city" : "Lodz" }
{ "loc" : { "type" : "Point", "coordinates" : [  19.49241,  51.77911 ] }, "name" : "Szkoly wyzsze", "city" : "Lodz" }
{ "loc" : { "type" : "Point", "coordinates" : [  19.493,  51.77975 ] }, "name" : "Szkoly wyzsze", "city" : "Lodz" }
{ "loc" : { "type" : "Point", "coordinates" : [  19.49361,  51.7802 ] }, "name" : "Szkoly wyzsze", "city" : "Lodz" }
{ "loc" : { "type" : "Point", "coordinates" : [  19.49121,  51.77475 ] }, "name" : "Szkoly wyzsze", "city" : "Lodz" }
{ "loc" : { "type" : "Point", "coordinates" : [  19.4946,  51.78026 ] }, "name" : "Szkoly wyzsze", "city" : "Lodz" }
{ "loc" : { "type" : "Point", "coordinates" : [  19.49519,  51.77985 ] }, "name" : "Szkoly wyzsze", "city" : "Lodz" }
{ "loc" : { "type" : "Point", "coordinates" : [  19.49531,  51.77865 ] }, "name" : "Szkoly wyzsze", "city" : "Lodz" }
{ "loc" : { "type" : "Point", "coordinates" : [  19.49619,  51.77825 ] }, "name" : "Szkoly wyzsze", "city" : "Lodz" }
{ "loc" : { "type" : "Point", "coordinates" : [  19.49702,  51.77972 ] }, "name" : "Szkoly wyzsze", "city" : "Lodz" }
{ "loc" : { "type" : "Point", "coordinates" : [  19.4968,  51.77832 ] }, "name" : "Szkoly wyzsze", "city" : "Lodz" }
{ "loc" : { "type" : "Point", "coordinates" : [  19.49768,  51.77976 ] }, "name" : "Szkoly wyzsze", "city" : "Lodz" }
{ "loc" : { "type" : "Point", "coordinates" : [  19.4974,  51.77843 ] }, "name" : "Szkoly wyzsze", "city" : "Lodz" }
{ "loc" : { "type" : "Point", "coordinates" : [  19.43616,  51.76835 ] }, "name" : "Szkoly wyzsze", "city" : "Lodz" }
{ "loc" : { "type" : "Point", "coordinates" : [  19.5076,  51.77557 ] }, "name" : "Szkoly wyzsze", "city" : "Lodz" }
{ "loc" : { "type" : "Point", "coordinates" : [  19.51214,  51.77344 ] }, "name" : "Szkoly wyzsze", "city" : "Lodz" }
